{
    "BRU": {
        "icao": "EBBR",
        "iata": "BRU",
        "name": "Brussels Airport",
        "city": "Brussels",
        "state": "Flanders",
        "country": "Belgium",
        "elevation": 184,
        "lat": 50.9014015198,
        "lon": 4.4844398499,
        "tz": "Europe/Brussels"
    },
    "CRL": {
        "icao": "EBCI",
        "iata": "CRL",
        "name": "Brussels South Charleroi Airport",
        "city": "Brussels",
        "state": "Wallonia",
        "country": "Belgium",
        "elevation": 614,
        "lat": 50.4592018127,
        "lon": 4.4538202286,
        "tz": "Europe/Brussels"
    },
    "BER": {
        "icao": "EDDB",
        "iata": "BER",
        "name": "Berlin Brandenburg Airport",
        "city": "Berlin",
        "state": "",
        "country": "Germany",
        "elevation": 156,
        "lat": 52.366667,
        "lon": 13.503333,
        "tz": "Europe/Berlin"
    },
    "DRS": {
        "icao": "EDDC",
        "iata": "DRS",
        "name": "Dresden Airport",
        "city": "Dresden",
        "state": "Saxony",
        "country": "Germany",
        "elevation": 755,
        "lat": 51.1328010559,
        "lon": 13.76720047,
        "tz": "Europe/Berlin"
    },
    "FRA": {
        "icao": "EDDF",
        "iata": "FRA",
        "name": "Frankfurt am Main International Airport",
        "city": "Frankfurt-am-Main",
        "state": "Hesse",
        "country": "Germany",
        "elevation": 364,
        "lat": 50.0264015198,
        "lon": 8.543129921,
        "tz": "Europe/Berlin"
    },
    "FMO": {
        "icao": "EDDG",
        "iata": "FMO",
        "name": "Munster Osnabruck Airport",
        "city": "Munster",
        "state": "North-Rhine-Westphalia",
        "country": "Germany",
        "elevation": 160,
        "lat": 52.134601593,
        "lon": 7.6848301888,
        "tz": "Europe/Berlin"
    },
    "HAM": {
        "icao": "EDDH",
        "iata": "HAM",
        "name": "Hamburg Airport",
        "city": "Hamburg",
        "state": "Hamburg",
        "country": "Germany",
        "elevation": 53,
        "lat": 53.6304016113,
        "lon": 9.9882297516,
        "tz": "Europe/Berlin"
    },
    "CGN": {
        "icao": "EDDK",
        "iata": "CGN",
        "name": "Cologne Bonn Airport",
        "city": "Cologne",
        "state": "North-Rhine-Westphalia",
        "country": "Germany",
        "elevation": 302,
        "lat": 50.8658981323,
        "lon": 7.1427397728,
        "tz": "Europe/Berlin"
    },
    "MUC": {
        "icao": "EDDM",
        "iata": "MUC",
        "name": "Munich International Airport",
        "city": "Munich",
        "state": "Bavaria",
        "country": "Germany",
        "elevation": 1487,
        "lat": 48.3538017273,
        "lon": 11.7861003876,
        "tz": "Europe/Berlin"
    },
    "NUE": {
        "icao": "EDDN",
        "iata": "NUE",
        "name": "Nuremberg Airport",
        "city": "Nuremberg",
        "state": "Bavaria",
        "country": "Germany",
        "elevation": 1046,
        "lat": 49.4986991882,
        "lon": 11.0669002533,
        "tz": "Europe/Berlin"
    },
    "LEJ": {
        "icao": "EDDP",
        "iata": "LEJ",
        "name": "Leipzig Halle Airport",
        "city": "Leipzig",
        "state": "Saxony",
        "country": "Germany",
        "elevation": 465,
        "lat": 51.4323997498,
        "lon": 12.2416000366,
        "tz": "Europe/Berlin"
    },
    "HAJ": {
        "icao": "EDDV",
        "iata": "HAJ",
        "name": "Hannover Airport",
        "city": "Hannover",
        "state": "Lower-Saxony",
        "country": "Germany",
        "elevation": 183,
        "lat": 52.461101532,
        "lon": 9.6850795746,
        "tz": "Europe/Berlin"
    },
    "BRE": {
        "icao": "EDDW",
        "iata": "BRE",
        "name": "Bremen Airport",
        "city": "Bremen",
        "state": "Bremen",
        "country": "Germany",
        "elevation": 14,
        "lat": 53.0475006104,
        "lon": 8.7866697311,
        "tz": "Europe/Berlin"
    },
    "HHN": {
        "icao": "EDFH",
        "iata": "HHN",
        "name": "Frankfurt-Hahn Airport",
        "city": "Hahn",
        "state": "Rheinland-Pfalz",
        "country": "Germany",
        "elevation": 1649,
        "lat": 49.9486999512,
        "lon": 7.2638897896,
        "tz": "Europe/Berlin"
    },
    "FMM": {
        "icao": "EDJA",
        "iata": "FMM",
        "name": "Memmingen Allgau Airport",
        "city": "Memmingen",
        "state": "Bavaria",
        "country": "Germany",
        "elevation": 2077,
        "lat": 47.9888000488,
        "lon": 10.2395000458,
        "tz": "Europe/Berlin"
    },
    "PAD": {
        "icao": "EDLP",
        "iata": "PAD",
        "name": "Paderborn Lippstadt Airport",
        "city": "Paderborn",
        "state": "North-Rhine-Westphalia",
        "country": "Germany",
        "elevation": 699,
        "lat": 51.6141014099,
        "lon": 8.6163196564,
        "tz": "Europe/Berlin"
    },
    "NRN": {
        "icao": "EDLV",
        "iata": "NRN",
        "name": "Niederrhein Airport",
        "city": "Weeze",
        "state": "North-Rhine-Westphalia",
        "country": "Germany",
        "elevation": 106,
        "lat": 51.6024017334,
        "lon": 6.1421699524,
        "tz": "Europe/Amsterdam"
    },
    "DTM": {
        "icao": "EDLW",
        "iata": "DTM",
        "name": "Dortmund Airport",
        "city": "Dortmund",
        "state": "North-Rhine-Westphalia",
        "country": "Germany",
        "elevation": 425,
        "lat": 51.5182991028,
        "lon": 7.6122398377,
        "tz": "Europe/Berlin"
    },
    "FKB": {
        "icao": "EDSB",
        "iata": "FKB",
        "name": "Karlsruhe Baden-Baden Airport",
        "city": "Baden-Baden",
        "state": "Baden-Wuerttemberg",
        "country": "Germany",
        "elevation": 408,
        "lat": 48.7793998718,
        "lon": 8.0804996491,
        "tz": "Europe/Berlin"
    },
    "TLL": {
        "icao": "EETN",
        "iata": "TLL",
        "name": "Tallinn Airport",
        "city": "Tallinn",
        "state": "Harjumaa",
        "country": "Estonia",
        "elevation": 131,
        "lat": 59.4132995605,
        "lon": 24.8327999115,
        "tz": "Europe/Tallinn"
    },
    "HEL": {
        "icao": "EFHK",
        "iata": "HEL",
        "name": "Helsinki Vantaa Airport",
        "city": "Helsinki",
        "state": "Uusimaa",
        "country": "Finland",
        "elevation": 179,
        "lat": 60.317199707,
        "lon": 24.963300705,
        "tz": "Europe/Helsinki"
    },
    "LPP": {
        "icao": "EFLP",
        "iata": "LPP",
        "name": "Lappeenranta Airport",
        "city": "Lappeenranta",
        "state": "South-Karelia",
        "country": "Finland",
        "elevation": 349,
        "lat": 61.0446014404,
        "lon": 28.1443996429,
        "tz": "Europe/Helsinki"
    },
    "RVN": {
        "icao": "EFRO",
        "iata": "RVN",
        "name": "Rovaniemi Airport",
        "city": "Rovaniemi",
        "state": "Lapland",
        "country": "Finland",
        "elevation": 642,
        "lat": 66.5647964478,
        "lon": 25.8304004669,
        "tz": "Europe/Helsinki"
    },
    "TMP": {
        "icao": "EFTP",
        "iata": "TMP",
        "name": "Tampere-Pirkkala Airport",
        "city": "Tampere / Pirkkala",
        "state": "Pirkanmaa",
        "country": "Finland",
        "elevation": 390,
        "lat": 61.414100647,
        "lon": 23.6044006348,
        "tz": "Europe/Helsinki"
    },
    "BFS": {
        "icao": "EGAA",
        "iata": "BFS",
        "name": "Belfast International Airport",
        "city": "Belfast",
        "state": "Northern-Ireland",
        "country": "United Kingdom",
        "elevation": 268,
        "lat": 54.6575012207,
        "lon": -6.2158298492,
        "tz": "Europe/London"
    },
    "BHX": {
        "icao": "EGBB",
        "iata": "BHX",
        "name": "Birmingham International Airport",
        "city": "Birmingham",
        "state": "England",
        "country": "United Kingdom",
        "elevation": 327,
        "lat": 52.4538993835,
        "lon": -1.7480299473,
        "tz": "Europe/London"
    },
    "MAN": {
        "icao": "EGCC",
        "iata": "MAN",
        "name": "Manchester Airport",
        "city": "Manchester",
        "state": "England",
        "country": "United Kingdom",
        "elevation": 257,
        "lat": 53.3536987305,
        "lon": -2.2749500275,
        "tz": "Europe/London"
    },
    "CWL": {
        "icao": "EGFF",
        "iata": "CWL",
        "name": "Cardiff International Airport",
        "city": "Cardiff",
        "state": "Wales",
        "country": "United Kingdom",
        "elevation": 220,
        "lat": 51.3967018127,
        "lon": -3.3433299065,
        "tz": "Europe/London"
    },
    "BRS": {
        "icao": "EGGD",
        "iata": "BRS",
        "name": "Bristol International Airport",
        "city": "Bristol",
        "state": "England",
        "country": "United Kingdom",
        "elevation": 622,
        "lat": 51.3827018738,
        "lon": -2.7190899849,
        "tz": "Europe/London"
    },
    "LPL": {
        "icao": "EGGP",
        "iata": "LPL",
        "name": "Liverpool John Lennon Airport",
        "city": "Liverpool",
        "state": "England",
        "country": "United Kingdom",
        "elevation": 80,
        "lat": 53.3335990906,
        "lon": -2.8497200012,
        "tz": "Europe/London"
    },
    "LTN": {
        "icao": "EGGW",
        "iata": "LTN",
        "name": "London Luton Airport",
        "city": "London",
        "state": "England",
        "country": "United Kingdom",
        "elevation": 526,
        "lat": 51.8746986389,
        "lon": -0.3683330119,
        "tz": "Europe/London"
    },
    "BOH": {
        "icao": "EGHH",
        "iata": "BOH",
        "name": "Bournemouth Airport",
        "city": "Bournemouth",
        "state": "England",
        "country": "United Kingdom",
        "elevation": 38,
        "lat": 50.7799987793,
        "lon": -1.8424999714,
        "tz": "Europe/London"
    },
    "NQY": {
        "icao": "EGHQ",
        "iata": "NQY",
        "name": "Newquay Cornwall Airport",
        "city": "Newquay",
        "state": "England",
        "country": "United Kingdom",
        "elevation": 390,
        "lat": 50.4406013489,
        "lon": -4.9954099655,
        "tz": "Europe/London"
    },
    "LGW": {
        "icao": "EGKK",
        "iata": "LGW",
        "name": "London Gatwick Airport",
        "city": "London",
        "state": "England",
        "country": "United Kingdom",
        "elevation": 202,
        "lat": 51.1481018066,
        "lon": -0.1902779937,
        "tz": "Europe/London"
    },
    "LBA": {
        "icao": "EGNM",
        "iata": "LBA",
        "name": "Leeds Bradford Airport",
        "city": "Leeds",
        "state": "England",
        "country": "United Kingdom",
        "elevation": 681,
        "lat": 53.8658981323,
        "lon": -1.6605700254,
        "tz": "Europe/London"
    },
    "NCL": {
        "icao": "EGNT",
        "iata": "NCL",
        "name": "Newcastle Airport",
        "city": "Newcastle",
        "state": "England",
        "country": "United Kingdom",
        "elevation": 266,
        "lat": 55.0374984741,
        "lon": -1.6916699409,
        "tz": "Europe/London"
    },
    "MME": {
        "icao": "EGNV",
        "iata": "MME",
        "name": "Durham Tees Valley Airport",
        "city": "Durham",
        "state": "England",
        "country": "United Kingdom",
        "elevation": 120,
        "lat": 54.5092010498,
        "lon": -1.4294099808,
        "tz": "Europe/London"
    },
    "EMA": {
        "icao": "EGNX",
        "iata": "EMA",
        "name": "East Midlands Airport",
        "city": "Nottingham",
        "state": "England",
        "country": "United Kingdom",
        "elevation": 306,
        "lat": 52.8311004639,
        "lon": -1.3280600309,
        "tz": "Europe/London"
    },
    "ABZ": {
        "icao": "EGPD",
        "iata": "ABZ",
        "name": "Aberdeen Dyce Airport",
        "city": "Aberdeen",
        "state": "Scotland",
        "country": "United Kingdom",
        "elevation": 215,
        "lat": 57.2019004822,
        "lon": -2.1977798939,
        "tz": "Europe/London"
    },
    "GLA": {
        "icao": "EGPF",
        "iata": "GLA",
        "name": "Glasgow International Airport",
        "city": "Glasgow",
        "state": "Scotland",
        "country": "United Kingdom",
        "elevation": 26,
        "lat": 55.8718986511,
        "lon": -4.4330601692,
        "tz": "Europe/London"
    },
    "EDI": {
        "icao": "EGPH",
        "iata": "EDI",
        "name": "Edinburgh Airport",
        "city": "Edinburgh",
        "state": "Scotland",
        "country": "United Kingdom",
        "elevation": 135,
        "lat": 55.9500007629,
        "lon": -3.3724999428,
        "tz": "Europe/London"
    },
    "PIK": {
        "icao": "EGPK",
        "iata": "PIK",
        "name": "Glasgow Prestwick Airport",
        "city": "Glasgow",
        "state": "Scotland",
        "country": "United Kingdom",
        "elevation": 65,
        "lat": 55.5093994141,
        "lon": -4.5866699219,
        "tz": "Europe/London"
    },
    "STN": {
        "icao": "EGSS",
        "iata": "STN",
        "name": "London Stansted Airport",
        "city": "London",
        "state": "England",
        "country": "United Kingdom",
        "elevation": 348,
        "lat": 51.8849983215,
        "lon": 0.2349999994,
        "tz": "Europe/London"
    },
    "EXT": {
        "icao": "EGTE",
        "iata": "EXT",
        "name": "Exeter International Airport",
        "city": "Exeter",
        "state": "England",
        "country": "United Kingdom",
        "elevation": 102,
        "lat": 50.7344017029,
        "lon": -3.4138898849,
        "tz": "Europe/London"
    },
    "AMS": {
        "icao": "EHAM",
        "iata": "AMS",
        "name": "Amsterdam Airport Schiphol",
        "city": "Amsterdam",
        "state": "North-Holland",
        "country": "Netherlands",
        "elevation": -11,
        "lat": 52.3086013794,
        "lon": 4.7638897896,
        "tz": "Europe/Amsterdam"
    },
    "MST": {
        "icao": "EHBK",
        "iata": "MST",
        "name": "Maastricht Aachen Airport",
        "city": "Maastricht",
        "state": "Limburg",
        "country": "Netherlands",
        "elevation": 375,
        "lat": 50.9117012024,
        "lon": 5.7701401711,
        "tz": "Europe/Amsterdam"
    },
    "EIN": {
        "icao": "EHEH",
        "iata": "EIN",
        "name": "Eindhoven Airport",
        "city": "Eindhoven",
        "state": "North-Brabant",
        "country": "Netherlands",
        "elevation": 74,
        "lat": 51.4500999451,
        "lon": 5.3745298386,
        "tz": "Europe/Amsterdam"
    },
    "ORK": {
        "icao": "EICK",
        "iata": "ORK",
        "name": "Cork Airport",
        "city": "Cork",
        "state": "Munster",
        "country": "Ireland",
        "elevation": 502,
        "lat": 51.8413009644,
        "lon": -8.491109848,
        "tz": "Europe/Dublin"
    },
    "DUB": {
        "icao": "EIDW",
        "iata": "DUB",
        "name": "Dublin Airport",
        "city": "Dublin",
        "state": "Leinster",
        "country": "Ireland",
        "elevation": 242,
        "lat": 53.4212989807,
        "lon": -6.270070076,
        "tz": "Europe/Dublin"
    },
    "NOC": {
        "icao": "EIKN",
        "iata": "NOC",
        "name": "Ireland West Knock Airport",
        "city": "Charleston",
        "state": "Connaught",
        "country": "Ireland",
        "elevation": 665,
        "lat": 53.9103012085,
        "lon": -8.8184900284,
        "tz": "Europe/Dublin"
    },
    "KIR": {
        "icao": "EIKY",
        "iata": "KIR",
        "name": "Kerry Airport",
        "city": "Killarney",
        "state": "Munster",
        "country": "Ireland",
        "elevation": 112,
        "lat": 52.1809005737,
        "lon": -9.5237798691,
        "tz": "Europe/Dublin"
    },
    "SNN": {
        "icao": "EINN",
        "iata": "SNN",
        "name": "Shannon Airport",
        "city": "Shannon",
        "state": "Munster",
        "country": "Ireland",
        "elevation": 46,
        "lat": 52.7019996643,
        "lon": -8.9248199463,
        "tz": "Europe/Dublin"
    },
    "AAR": {
        "icao": "EKAH",
        "iata": "AAR",
        "name": "Aarhus Airport",
        "city": "Aarhus",
        "state": "Central-Jutland",
        "country": "Denmark",
        "elevation": 82,
        "lat": 56.2999992371,
        "lon": 10.6190004349,
        "tz": "Europe/Copenhagen"
    },
    "BLL": {
        "icao": "EKBI",
        "iata": "BLL",
        "name": "Billund Airport",
        "city": "Billund",
        "state": "South-Denmark",
        "country": "Denmark",
        "elevation": 247,
        "lat": 55.7402992249,
        "lon": 9.1517801285,
        "tz": "Europe/Copenhagen"
    },
    "CPH": {
        "icao": "EKCH",
        "iata": "CPH",
        "name": "Copenhagen Kastrup Airport",
        "city": "Copenhagen",
        "state": "Capital-Region",
        "country": "Denmark",
        "elevation": 17,
        "lat": 55.6179008484,
        "lon": 12.6560001373,
        "tz": "Europe/Copenhagen"
    },
    "AAL": {
        "icao": "EKYT",
        "iata": "AAL",
        "name": "Aalborg Airport",
        "city": "Aalborg",
        "state": "North-Denmark",
        "country": "Denmark",
        "elevation": 10,
        "lat": 57.0927589138,
        "lon": 9.8492431641,
        "tz": "Europe/Copenhagen"
    },
    "LUX": {
        "icao": "ELLX",
        "iata": "LUX",
        "name": "Luxembourg-Findel International Airport",
        "city": "Luxembourg",
        "state": "Luxembourg",
        "country": "Luxembourg",
        "elevation": 1234,
        "lat": 49.6265983582,
        "lon": 6.211520195,
        "tz": "Europe/Luxembourg"
    },
    "OSL": {
        "icao": "ENGM",
        "iata": "OSL",
        "name": "Oslo Gardermoen Airport",
        "city": "Oslo",
        "state": "Akershus",
        "country": "Norway",
        "elevation": 681,
        "lat": 60.193901062,
        "lon": 11.100399971,
        "tz": "Europe/Oslo"
    },
    "HAU": {
        "icao": "ENHD",
        "iata": "HAU",
        "name": "Haugesund Airport",
        "city": "Karmoy",
        "state": "Rogaland",
        "country": "Norway",
        "elevation": 86,
        "lat": 59.3452987671,
        "lon": 5.2083601952,
        "tz": "Europe/Oslo"
    },
    "TRF": {
        "icao": "ENTO",
        "iata": "TRF",
        "name": "Sandefjord Airport Torp",
        "city": "Torp",
        "state": "Vestfold",
        "country": "Norway",
        "elevation": 286,
        "lat": 59.1866989136,
        "lon": 10.258600235,
        "tz": "Europe/Oslo"
    },
    "BZG": {
        "icao": "EPBY",
        "iata": "BZG",
        "name": "Bydgoszcz Ignacy Jan Paderewski Airport",
        "city": "Bydgoszcz",
        "state": "Kujawsko-Pomorskie",
        "country": "Poland",
        "elevation": 235,
        "lat": 53.0968017578,
        "lon": 17.9776992798,
        "tz": "Europe/Warsaw"
    },
    "GDN": {
        "icao": "EPGD",
        "iata": "GDN",
        "name": "Gdansk Lech Walesa Airport",
        "city": "Gdansk",
        "state": "Pomerania",
        "country": "Poland",
        "elevation": 489,
        "lat": 54.3776016235,
        "lon": 18.4661998749,
        "tz": "Europe/Warsaw"
    },
    "KRK": {
        "icao": "EPKK",
        "iata": "KRK",
        "name": "John Paul II International Airport Krakow-Balice Airport",
        "city": "Krakow",
        "state": "Lesser-Poland-Voivodeship",
        "country": "Poland",
        "elevation": 791,
        "lat": 50.0777015686,
        "lon": 19.7847995758,
        "tz": "Europe/Warsaw"
    },
    "KTW": {
        "icao": "EPKT",
        "iata": "KTW",
        "name": "Katowice International Airport",
        "city": "Katowice",
        "state": "Silesia",
        "country": "Poland",
        "elevation": 995,
        "lat": 50.4743003845,
        "lon": 19.0799999237,
        "tz": "Europe/Warsaw"
    },
    "LUZ": {
        "icao": "EPLB",
        "iata": "LUZ",
        "name": "Lublin Airport",
        "city": "Lublin",
        "state": "Lublin",
        "country": "Poland",
        "elevation": 633,
        "lat": 51.240278,
        "lon": 22.713611,
        "tz": "Europe/Warsaw"
    },
    "LCJ": {
        "icao": "EPLL",
        "iata": "LCJ",
        "name": "Lodz Wladyslaw Reymont Airport",
        "city": "Lodz",
        "state": "Kodz-Voivodeship",
        "country": "Poland",
        "elevation": 604,
        "lat": 51.7219009399,
        "lon": 19.3980998993,
        "tz": "Europe/Warsaw"
    },
    "WMI": {
        "icao": "EPMO",
        "iata": "WMI",
        "name": "Warsaw Modlin Airport",
        "city": "Warsaw",
        "state": "Mazovia",
        "country": "Poland",
        "elevation": 341,
        "lat": 52.4510993958,
        "lon": 20.6518001556,
        "tz": "Europe/Warsaw"
    },
    "POZ": {
        "icao": "EPPO",
        "iata": "POZ",
        "name": "Poznan-Lawica Airport",
        "city": "Poznan",
        "state": "Greater-Poland",
        "country": "Poland",
        "elevation": 308,
        "lat": 52.4210014343,
        "lon": 16.8262996674,
        "tz": "Europe/Warsaw"
    },
    "RZE": {
        "icao": "EPRZ",
        "iata": "RZE",
        "name": "Rzeszow-Jasionka Airport",
        "city": "Rzeszow",
        "state": "Subcarpathian-Voivodeship",
        "country": "Poland",
        "elevation": 675,
        "lat": 50.1100006104,
        "lon": 22.0189990997,
        "tz": "Europe/Warsaw"
    },
    "SZZ": {
        "icao": "EPSC",
        "iata": "SZZ",
        "name": "Szczecin-Goleniow Solidarnosc Airport",
        "city": "Goleniow",
        "state": "West-Pomerania",
        "country": "Poland",
        "elevation": 154,
        "lat": 53.5847015381,
        "lon": 14.9021997452,
        "tz": "Europe/Warsaw"
    },
    "SZY": {
        "icao": "EPSY",
        "iata": "SZY",
        "name": "Olsztyn-Mazury Airport",
        "city": "Szymany",
        "state": "Warmia-Mazury",
        "country": "Poland",
        "elevation": 464,
        "lat": 53.481944,
        "lon": 20.937778,
        "tz": "Europe/Warsaw"
    },
    "WAW": {
        "icao": "EPWA",
        "iata": "WAW",
        "name": "Warsaw Chopin Airport",
        "city": "Warsaw",
        "state": "Mazovia",
        "country": "Poland",
        "elevation": 362,
        "lat": 52.1656990051,
        "lon": 20.9671001434,
        "tz": "Europe/Warsaw"
    },
    "WRO": {
        "icao": "EPWR",
        "iata": "WRO",
        "name": "Copernicus Wroclaw Airport",
        "city": "Wroclaw",
        "state": "Lower-Silesia",
        "country": "Poland",
        "elevation": 404,
        "lat": 51.1026992798,
        "lon": 16.885799408,
        "tz": "Europe/Warsaw"
    },
    "GOT": {
        "icao": "ESGG",
        "iata": "GOT",
        "name": "Gothenburg-Landvetter Airport",
        "city": "Gothenburg",
        "state": "Vaestra-Gotaland",
        "country": "Sweden",
        "elevation": 506,
        "lat": 57.6627998352,
        "lon": 12.279800415,
        "tz": "Europe/Stockholm"
    },
    "MMX": {
        "icao": "ESMS",
        "iata": "MMX",
        "name": "Malmo Sturup Airport",
        "city": "Malmo",
        "state": "Skane",
        "country": "Sweden",
        "elevation": 236,
        "lat": 55.536305364,
        "lon": 13.3761978149,
        "tz": "Europe/Stockholm"
    },
    "VXO": {
        "icao": "ESMX",
        "iata": "VXO",
        "name": "Vaxjo Kronoberg Airport",
        "city": "Vaxjo",
        "state": "Kronoberg",
        "country": "Sweden",
        "elevation": 610,
        "lat": 56.9291000366,
        "lon": 14.7279996872,
        "tz": "Europe/Stockholm"
    },
    "SFT": {
        "icao": "ESNS",
        "iata": "SFT",
        "name": "Skelleftea Airport",
        "city": "Skelleftea",
        "state": "Vaesterbotten",
        "country": "Sweden",
        "elevation": 157,
        "lat": 64.6248016357,
        "lon": 21.0769004822,
        "tz": "Europe/Stockholm"
    },
    "ORB": {
        "icao": "ESOE",
        "iata": "ORB",
        "name": "Orebro Airport",
        "city": "Orebro",
        "state": "Oerebro",
        "country": "Sweden",
        "elevation": 188,
        "lat": 59.2237014771,
        "lon": 15.0380001068,
        "tz": "Europe/Stockholm"
    },
    "VST": {
        "icao": "ESOW",
        "iata": "VST",
        "name": "Stockholm Vasteras Airport",
        "city": "Stockholm / Vasteras",
        "state": "Vaestmanland",
        "country": "Sweden",
        "elevation": 21,
        "lat": 59.5894012451,
        "lon": 16.633600235,
        "tz": "Europe/Stockholm"
    },
    "LLA": {
        "icao": "ESPA",
        "iata": "LLA",
        "name": "Lulea Airport",
        "city": "Lulea",
        "state": "Norrbotten",
        "country": "Sweden",
        "elevation": 65,
        "lat": 65.543800354,
        "lon": 22.1219997406,
        "tz": "Europe/Stockholm"
    },
    "ARN": {
        "icao": "ESSA",
        "iata": "ARN",
        "name": "Stockholm-Arlanda Airport",
        "city": "Stockholm",
        "state": "Stockholm",
        "country": "Sweden",
        "elevation": 137,
        "lat": 59.6519012451,
        "lon": 17.9186000824,
        "tz": "Europe/Stockholm"
    },
    "VBY": {
        "icao": "ESSV",
        "iata": "VBY",
        "name": "Visby Airport",
        "city": "Visby",
        "state": "Gotland",
        "country": "Sweden",
        "elevation": 164,
        "lat": 57.6627998352,
        "lon": 18.346200943,
        "tz": "Europe/Stockholm"
    },
    "RIX": {
        "icao": "EVRA",
        "iata": "RIX",
        "name": "Riga International Airport",
        "city": "Riga",
        "state": "Marupe",
        "country": "Latvia",
        "elevation": 36,
        "lat": 56.9235992432,
        "lon": 23.9710998535,
        "tz": "Europe/Riga"
    },
    "KUN": {
        "icao": "EYKA",
        "iata": "KUN",
        "name": "Kaunas International Airport",
        "city": "Kaunas",
        "state": "",
        "country": "Lithuania",
        "elevation": 256,
        "lat": 54.9639015198,
        "lon": 24.0848007202,
        "tz": "Europe/Vilnius"
    },
    "PLQ": {
        "icao": "EYPA",
        "iata": "PLQ",
        "name": "Palanga International Airport",
        "city": "Palanga",
        "state": "",
        "country": "Lithuania",
        "elevation": 33,
        "lat": 55.9732017517,
        "lon": 21.0939006805,
        "tz": "Europe/Vilnius"
    },
    "VNO": {
        "icao": "EYVI",
        "iata": "VNO",
        "name": "Vilnius International Airport",
        "city": "Vilnius",
        "state": "Vilnius",
        "country": "Lithuania",
        "elevation": 646,
        "lat": 54.6341018677,
        "lon": 25.2858009338,
        "tz": "Europe/Vilnius"
    },
    "FUE": {
        "icao": "GCFV",
        "iata": "FUE",
        "name": "Fuerteventura Airport",
        "city": "Fuerteventura Island",
        "state": "Canary-Islands",
        "country": "Spain",
        "elevation": 85,
        "lat": 28.4526996613,
        "lon": -13.8638000488,
        "tz": "Atlantic/Canary"
    },
    "SPC": {
        "icao": "GCLA",
        "iata": "SPC",
        "name": "La Palma Airport",
        "city": "Sta Cruz de la Palma",
        "state": "Canary-Islands",
        "country": "Spain",
        "elevation": 107,
        "lat": 28.626499176,
        "lon": -17.7555999756,
        "tz": "Atlantic/Canary"
    },
    "LPA": {
        "icao": "GCLP",
        "iata": "LPA",
        "name": "Gran Canaria Airport",
        "city": "Gran Canaria Island",
        "state": "Canary-Islands",
        "country": "Spain",
        "elevation": 78,
        "lat": 27.9319000244,
        "lon": -15.3865995407,
        "tz": "Atlantic/Canary"
    },
    "ACE": {
        "icao": "GCRR",
        "iata": "ACE",
        "name": "Lanzarote Airport",
        "city": "Lanzarote Island",
        "state": "Canary-Islands",
        "country": "Spain",
        "elevation": 46,
        "lat": 28.9454994202,
        "lon": -13.6051998138,
        "tz": "Atlantic/Canary"
    },
    "TFS": {
        "icao": "GCTS",
        "iata": "TFS",
        "name": "Tenerife South Airport",
        "city": "Tenerife Island",
        "state": "Canary-Islands",
        "country": "Spain",
        "elevation": 209,
        "lat": 28.044500351,
        "lon": -16.5725002289,
        "tz": "Atlantic/Canary"
    },
    "TFN": {
        "icao": "GCXO",
        "iata": "TFN",
        "name": "Tenerife Norte Airport",
        "city": "Tenerife Island",
        "state": "Canary-Islands",
        "country": "Spain",
        "elevation": 2076,
        "lat": 28.4827003479,
        "lon": -16.3414993286,
        "tz": "Atlantic/Canary"
    },
    "AGA": {
        "icao": "GMAD",
        "iata": "AGA",
        "name": "Al Massira Airport",
        "city": "Agadir",
        "state": "Souss-Massa",
        "country": "Morocco",
        "elevation": 250,
        "lat": 30.3250007629,
        "lon": -9.413069725,
        "tz": "Africa/Casablanca"
    },
    "FEZ": {
        "icao": "GMFF",
        "iata": "FEZ",
        "name": "Saiss Airport",
        "city": "Fes",
        "state": "Fes-Meknes",
        "country": "Morocco",
        "elevation": 1900,
        "lat": 33.9272994995,
        "lon": -4.9779601097,
        "tz": "Africa/Casablanca"
    },
    "OUD": {
        "icao": "GMFO",
        "iata": "OUD",
        "name": "Angads Airport",
        "city": "Oujda",
        "state": "Oriental",
        "country": "Morocco",
        "elevation": 1535,
        "lat": 34.7872009277,
        "lon": -1.9239900112,
        "tz": "Africa/Casablanca"
    },
    "RBA": {
        "icao": "GMME",
        "iata": "RBA",
        "name": "Rabat-Sale Airport",
        "city": "Rabat",
        "state": "",
        "country": "Morocco",
        "elevation": 276,
        "lat": 34.0514984131,
        "lon": -6.7515201569,
        "tz": "Africa/Casablanca"
    },
    "ESU": {
        "icao": "GMMI",
        "iata": "ESU",
        "name": "Mogador Airport",
        "city": "Essaouira",
        "state": "",
        "country": "Morocco",
        "elevation": 384,
        "lat": 31.3974990845,
        "lon": -9.6816701889,
        "tz": "Africa/Casablanca"
    },
    "NDR": {
        "icao": "GMMW",
        "iata": "NDR",
        "name": "Nador International Airport",
        "city": "Nador",
        "state": "Oriental",
        "country": "Morocco",
        "elevation": 574,
        "lat": 34.9888000488,
        "lon": -3.0282099247,
        "tz": "Africa/Casablanca"
    },
    "RAK": {
        "icao": "GMMX",
        "iata": "RAK",
        "name": "Menara Airport",
        "city": "Marrakech",
        "state": "Marrakesh-Safi",
        "country": "Morocco",
        "elevation": 1545,
        "lat": 31.6068992615,
        "lon": -8.0362997055,
        "tz": "Africa/Casablanca"
    },
    "OZZ": {
        "icao": "GMMZ",
        "iata": "OZZ",
        "name": "Ouarzazate Airport",
        "city": "Ouarzazate",
        "state": "Draa-Tafilalet",
        "country": "Morocco",
        "elevation": 3782,
        "lat": 30.9391002655,
        "lon": -6.909430027,
        "tz": "Africa/Casablanca"
    },
    "TTU": {
        "icao": "GMTN",
        "iata": "TTU",
        "name": "Saniat Rmel Airport",
        "city": "",
        "state": "",
        "country": "Morocco",
        "elevation": 10,
        "lat": 35.5942993164,
        "lon": -5.3200201988,
        "tz": "Africa/Casablanca"
    },
    "TNG": {
        "icao": "GMTT",
        "iata": "TNG",
        "name": "Ibn Batouta Airport",
        "city": "Tangier",
        "state": "",
        "country": "Morocco",
        "elevation": 62,
        "lat": 35.7268981934,
        "lon": -5.9168901444,
        "tz": "Africa/Casablanca"
    },
    "BOJ": {
        "icao": "LBBG",
        "iata": "BOJ",
        "name": "Burgas Airport",
        "city": "Burgas",
        "state": "Burgas",
        "country": "Bulgaria",
        "elevation": 135,
        "lat": 42.5695991516,
        "lon": 27.5151996613,
        "tz": "Europe/Sofia"
    },
    "PDV": {
        "icao": "LBPD",
        "iata": "PDV",
        "name": "Plovdiv International Airport",
        "city": "Plovdiv",
        "state": "Plovdiv",
        "country": "Bulgaria",
        "elevation": 597,
        "lat": 42.0677986145,
        "lon": 24.8507995605,
        "tz": "Europe/Sofia"
    },
    "SOF": {
        "icao": "LBSF",
        "iata": "SOF",
        "name": "Sofia Airport",
        "city": "Sofia",
        "state": "Sofia-Capital",
        "country": "Bulgaria",
        "elevation": 1742,
        "lat": 42.6966934204,
        "lon": 23.4114360809,
        "tz": "Europe/Sofia"
    },
    "VAR": {
        "icao": "LBWN",
        "iata": "VAR",
        "name": "Varna Airport",
        "city": "Varna",
        "state": "Varna",
        "country": "Bulgaria",
        "elevation": 230,
        "lat": 43.2321014404,
        "lon": 27.8250999451,
        "tz": "Europe/Sofia"
    },
    "LCA": {
        "icao": "LCLK",
        "iata": "LCA",
        "name": "Larnaca International Airport",
        "city": "Larnarca",
        "state": "Larnaka",
        "country": "Cyprus",
        "elevation": 8,
        "lat": 34.8750991821,
        "lon": 33.6249008179,
        "tz": "Asia/Nicosia"
    },
    "PFO": {
        "icao": "LCPH",
        "iata": "PFO",
        "name": "Paphos International Airport",
        "city": "Paphos",
        "state": "Pafos",
        "country": "Cyprus",
        "elevation": 41,
        "lat": 34.7179985046,
        "lon": 32.4856987,
        "tz": "Asia/Nicosia"
    },
    "DBV": {
        "icao": "LDDU",
        "iata": "DBV",
        "name": "Dubrovnik Airport",
        "city": "Dubrovnik",
        "state": "Dubrovacko-Neretvanska",
        "country": "Croatia",
        "elevation": 527,
        "lat": 42.5614013672,
        "lon": 18.2681999207,
        "tz": "Europe/Zagreb"
    },
    "OSI": {
        "icao": "LDOS",
        "iata": "OSI",
        "name": "Osijek Airport",
        "city": "Osijek",
        "state": "Osjecko-Baranjska",
        "country": "Croatia",
        "elevation": 290,
        "lat": 45.4626998901,
        "lon": 18.8101997375,
        "tz": "Europe/Zagreb"
    },
    "PUY": {
        "icao": "LDPL",
        "iata": "PUY",
        "name": "Pula Airport",
        "city": "Pula",
        "state": "Istria",
        "country": "Croatia",
        "elevation": 274,
        "lat": 44.8935012817,
        "lon": 13.9222002029,
        "tz": "Europe/Zagreb"
    },
    "RJK": {
        "icao": "LDRI",
        "iata": "RJK",
        "name": "Rijeka Airport",
        "city": "Rijeka",
        "state": "Primorsko-Goranska",
        "country": "Croatia",
        "elevation": 278,
        "lat": 45.2168998718,
        "lon": 14.5703001022,
        "tz": "Europe/Zagreb"
    },
    "SPU": {
        "icao": "LDSP",
        "iata": "SPU",
        "name": "Split Airport",
        "city": "Split",
        "state": "Split-Dalmatia",
        "country": "Croatia",
        "elevation": 79,
        "lat": 43.538898468,
        "lon": 16.2980003357,
        "tz": "Europe/Zagreb"
    },
    "ZAG": {
        "icao": "LDZA",
        "iata": "ZAG",
        "name": "Zagreb Airport",
        "city": "Zagreb",
        "state": "Zagrebacka",
        "country": "Croatia",
        "elevation": 353,
        "lat": 45.7429008484,
        "lon": 16.0687999725,
        "tz": "Europe/Zagreb"
    },
    "ZAD": {
        "icao": "LDZD",
        "iata": "ZAD",
        "name": "Zemunik Airport",
        "city": "Zadar",
        "state": "Zadarska",
        "country": "Croatia",
        "elevation": 289,
        "lat": 44.1082992554,
        "lon": 15.3466997147,
        "tz": "Europe/Zagreb"
    },
    "ALC": {
        "icao": "LEAL",
        "iata": "ALC",
        "name": "Alicante International Airport",
        "city": "Alicante",
        "state": "Valencia",
        "country": "Spain",
        "elevation": 142,
        "lat": 38.2821998596,
        "lon": -0.5581560135,
        "tz": "Europe/Madrid"
    },
    "LEI": {
        "icao": "LEAM",
        "iata": "LEI",
        "name": "Almeria International Airport",
        "city": "Almeria",
        "state": "Andalusia",
        "country": "Spain",
        "elevation": 70,
        "lat": 36.8438987732,
        "lon": -2.3701000214,
        "tz": "Europe/Madrid"
    },
    "OVD": {
        "icao": "LEAS",
        "iata": "OVD",
        "name": "Asturias Airport",
        "city": "Ranon",
        "state": "Asturias",
        "country": "Spain",
        "elevation": 416,
        "lat": 43.5635986328,
        "lon": -6.0346198082,
        "tz": "Europe/Madrid"
    },
    "BCN": {
        "icao": "LEBL",
        "iata": "BCN",
        "name": "Barcelona International Airport",
        "city": "Barcelona",
        "state": "Catalonia",
        "country": "Spain",
        "elevation": 12,
        "lat": 41.2971000671,
        "lon": 2.0784599781,
        "tz": "Europe/Madrid"
    },
    "CDT": {
        "icao": "LECN",
        "iata": "CDT",
        "name": "Castellon De La Plana Airport",
        "city": "Castellon de La Plana",
        "state": "Valencia",
        "country": "Spain",
        "elevation": 20,
        "lat": 39.9991989136,
        "lon": 0.0261109993,
        "tz": "Europe/Madrid"
    },
    "GRO": {
        "icao": "LEGE",
        "iata": "GRO",
        "name": "Girona Airport",
        "city": "Girona",
        "state": "Catalonia",
        "country": "Spain",
        "elevation": 468,
        "lat": 41.9010009766,
        "lon": 2.7605500221,
        "tz": "Europe/Madrid"
    },
    "IBZ": {
        "icao": "LEIB",
        "iata": "IBZ",
        "name": "Ibiza Airport",
        "city": "Ibiza",
        "state": "Balearic-Islands",
        "country": "Spain",
        "elevation": 24,
        "lat": 38.8728981018,
        "lon": 1.3731199503,
        "tz": "Europe/Madrid"
    },
    "XRY": {
        "icao": "LEJR",
        "iata": "XRY",
        "name": "Jerez Airport",
        "city": "Jerez de la Forntera",
        "state": "Andalusia",
        "country": "Spain",
        "elevation": 93,
        "lat": 36.7445983887,
        "lon": -6.0601100922,
        "tz": "Europe/Madrid"
    },
    "MAD": {
        "icao": "LEMD",
        "iata": "MAD",
        "name": "Madrid Barajas International Airport",
        "city": "Madrid",
        "state": "Madrid",
        "country": "Spain",
        "elevation": 2001,
        "lat": 40.4936,
        "lon": -3.56676,
        "tz": "Europe/Madrid"
    },
    "AGP": {
        "icao": "LEMG",
        "iata": "AGP",
        "name": "Malaga Airport",
        "city": "Malaga",
        "state": "Andalusia",
        "country": "Spain",
        "elevation": 53,
        "lat": 36.6749000549,
        "lon": -4.4991102219,
        "tz": "Europe/Madrid"
    },
    "MAH": {
        "icao": "LEMH",
        "iata": "MAH",
        "name": "Menorca Airport",
        "city": "Menorca Island",
        "state": "Balearic-Islands",
        "country": "Spain",
        "elevation": 302,
        "lat": 39.8625984192,
        "lon": 4.2186498642,
        "tz": "Europe/Madrid"
    },
    "RMU": {
        "icao": "LEMI",
        "iata": "RMU",
        "name": "Regi\u00f3n de Murcia International Airport",
        "city": "Corvera",
        "state": "Corvera",
        "country": "Spain",
        "elevation": 633,
        "lat": 37.803,
        "lon": -1.125,
        "tz": "Europe/Madrid"
    },
    "PMI": {
        "icao": "LEPA",
        "iata": "PMI",
        "name": "Palma De Mallorca Airport",
        "city": "Palma De Mallorca",
        "state": "Balearic-Islands",
        "country": "Spain",
        "elevation": 27,
        "lat": 39.551700592,
        "lon": 2.7388100624,
        "tz": "Europe/Madrid"
    },
    "REU": {
        "icao": "LERS",
        "iata": "REU",
        "name": "Reus Air Base",
        "city": "Reus",
        "state": "Catalonia",
        "country": "Spain",
        "elevation": 233,
        "lat": 41.1473999023,
        "lon": 1.1671700478,
        "tz": "Europe/Madrid"
    },
    "SCQ": {
        "icao": "LEST",
        "iata": "SCQ",
        "name": "Santiago de Compostela Airport",
        "city": "Santiago de Compostela",
        "state": "Galicia",
        "country": "Spain",
        "elevation": 1213,
        "lat": 42.8963012695,
        "lon": -8.415140152,
        "tz": "Europe/Madrid"
    },
    "VLC": {
        "icao": "LEVC",
        "iata": "VLC",
        "name": "Valencia Airport",
        "city": "Valencia",
        "state": "Valencia",
        "country": "Spain",
        "elevation": 240,
        "lat": 39.4892997742,
        "lon": -0.4816249907,
        "tz": "Europe/Madrid"
    },
    "VLL": {
        "icao": "LEVD",
        "iata": "VLL",
        "name": "Valladolid Airport",
        "city": "Valladolid",
        "state": "Castille-and-Leon",
        "country": "Spain",
        "elevation": 2776,
        "lat": 41.7061004639,
        "lon": -4.851940155,
        "tz": "Europe/Madrid"
    },
    "VIT": {
        "icao": "LEVT",
        "iata": "VIT",
        "name": "Vitoria/Foronda Airport",
        "city": "Alava",
        "state": "Basque-Country",
        "country": "Spain",
        "elevation": 1682,
        "lat": 42.8828010559,
        "lon": -2.7244699001,
        "tz": "Europe/Madrid"
    },
    "VGO": {
        "icao": "LEVX",
        "iata": "VGO",
        "name": "Vigo Airport",
        "city": "Vigo",
        "state": "Galicia",
        "country": "Spain",
        "elevation": 856,
        "lat": 42.2318000793,
        "lon": -8.6267700195,
        "tz": "Europe/Madrid"
    },
    "SDR": {
        "icao": "LEXJ",
        "iata": "SDR",
        "name": "Santander Airport",
        "city": "Santander",
        "state": "Cantabria",
        "country": "Spain",
        "elevation": 16,
        "lat": 43.4271011353,
        "lon": -3.8200099468,
        "tz": "Europe/Madrid"
    },
    "ZAZ": {
        "icao": "LEZG",
        "iata": "ZAZ",
        "name": "Zaragoza Air Base",
        "city": "Zaragoza",
        "state": "Aragon",
        "country": "Spain",
        "elevation": 863,
        "lat": 41.6661987305,
        "lon": -1.0415500402,
        "tz": "Europe/Madrid"
    },
    "SVQ": {
        "icao": "LEZL",
        "iata": "SVQ",
        "name": "Sevilla Airport",
        "city": "Sevilla",
        "state": "Andalusia",
        "country": "Spain",
        "elevation": 112,
        "lat": 37.4179992676,
        "lon": -5.8931097984,
        "tz": "Europe/Madrid"
    },
    "BOD": {
        "icao": "LFBD",
        "iata": "BOD",
        "name": "Bordeaux-Merignac (BA 106) Airport",
        "city": "Bordeaux/Merignac",
        "state": "Nouvelle-Aquitaine",
        "country": "France",
        "elevation": 162,
        "lat": 44.8283004761,
        "lon": -0.7155560255,
        "tz": "Europe/Paris"
    },
    "EGC": {
        "icao": "LFBE",
        "iata": "EGC",
        "name": "Bergerac-Roumaniere Airport",
        "city": "Bergerac/Roumaniere",
        "state": "Nouvelle-Aquitaine",
        "country": "France",
        "elevation": 171,
        "lat": 44.8252983093,
        "lon": 0.5186110139,
        "tz": "Europe/Paris"
    },
    "LRH": {
        "icao": "LFBH",
        "iata": "LRH",
        "name": "La Rochelle-Ile de Re Airport",
        "city": "La Rochelle/Ile de Re",
        "state": "Nouvelle-Aquitaine",
        "country": "France",
        "elevation": 74,
        "lat": 46.1791992188,
        "lon": -1.1952799559,
        "tz": "Europe/Paris"
    },
    "PIS": {
        "icao": "LFBI",
        "iata": "PIS",
        "name": "Poitiers-Biard Airport",
        "city": "Poitiers/Biard",
        "state": "Nouvelle-Aquitaine",
        "country": "France",
        "elevation": 423,
        "lat": 46.5876998901,
        "lon": 0.3066659868,
        "tz": "Europe/Paris"
    },
    "LIG": {
        "icao": "LFBL",
        "iata": "LIG",
        "name": "Limoges Airport",
        "city": "Limoges/Bellegarde",
        "state": "Nouvelle-Aquitaine",
        "country": "France",
        "elevation": 1300,
        "lat": 45.8628005981,
        "lon": 1.1794400215,
        "tz": "Europe/Paris"
    },
    "TLS": {
        "icao": "LFBO",
        "iata": "TLS",
        "name": "Toulouse-Blagnac Airport",
        "city": "Toulouse/Blagnac",
        "state": "Occitanie",
        "country": "France",
        "elevation": 499,
        "lat": 43.6291007996,
        "lon": 1.3638199568,
        "tz": "Europe/Paris"
    },
    "LDE": {
        "icao": "LFBT",
        "iata": "LDE",
        "name": "Tarbes-Lourdes-Pyrenees Airport",
        "city": "Tarbes/Lourdes/Pyrenees",
        "state": "Occitanie",
        "country": "France",
        "elevation": 1260,
        "lat": 43.1786994934,
        "lon": -0.0064389999,
        "tz": "Europe/Paris"
    },
    "BVE": {
        "icao": "LFSL",
        "iata": "BVE",
        "name": "Toul Rosieres Air Base",
        "city": "St Dizier",
        "state": "Grand-Est",
        "country": "France",
        "elevation": 936,
        "lat": 48.7799987793,
        "lon": 5.9800000191,
        "tz": "Europe/Paris"
    },
    "BIQ": {
        "icao": "LFBZ",
        "iata": "BIQ",
        "name": "Biarritz-Anglet-Bayonne Airport",
        "city": "Biarritz/Anglet/Bayonne",
        "state": "Nouvelle-Aquitaine",
        "country": "France",
        "elevation": 245,
        "lat": 43.4683990479,
        "lon": -1.5233199596,
        "tz": "Europe/Paris"
    },
    "RDZ": {
        "icao": "LFCR",
        "iata": "RDZ",
        "name": "Rodez-Marcillac Airport",
        "city": "Rodez/Marcillac",
        "state": "Occitanie",
        "country": "France",
        "elevation": 1910,
        "lat": 44.4079017639,
        "lon": 2.4826700687,
        "tz": "Europe/Paris"
    },
    "DLE": {
        "icao": "LFGJ",
        "iata": "DLE",
        "name": "Dole-Tavaux Airport",
        "city": "Dole/Tavaux",
        "state": "Bourgogne-Franche-Comte",
        "country": "France",
        "elevation": 645,
        "lat": 47.0390014648,
        "lon": 5.4272499084,
        "tz": "Europe/Paris"
    },
    "FSC": {
        "icao": "LFKF",
        "iata": "FSC",
        "name": "Figari Sud-Corse Airport",
        "city": "Figari Sud-Corse",
        "state": "Corsica",
        "country": "France",
        "elevation": 87,
        "lat": 41.5005989075,
        "lon": 9.0977802277,
        "tz": "Europe/Paris"
    },
    "CFE": {
        "icao": "LFLC",
        "iata": "CFE",
        "name": "Clermont-Ferrand Auvergne Airport",
        "city": "Clermont-Ferrand/Auvergne",
        "state": "Auvergne-Rhone-Alpes",
        "country": "France",
        "elevation": 1090,
        "lat": 45.7867012024,
        "lon": 3.1691699028,
        "tz": "Europe/Paris"
    },
    "LYS": {
        "icao": "LFLL",
        "iata": "LYS",
        "name": "Lyon Saint-Exupery Airport",
        "city": "Lyon",
        "state": "Auvergne-Rhone-Alpes",
        "country": "France",
        "elevation": 821,
        "lat": 45.726398468,
        "lon": 5.0908298492,
        "tz": "Europe/Paris"
    },
    "GNB": {
        "icao": "LFLS",
        "iata": "GNB",
        "name": "Grenoble-Isere Airport",
        "city": "Grenoble/Saint-Geoirs",
        "state": "Auvergne-Rhone-Alpes",
        "country": "France",
        "elevation": 1302,
        "lat": 45.3628997803,
        "lon": 5.3293700218,
        "tz": "Europe/Paris"
    },
    "CCF": {
        "icao": "LFMK",
        "iata": "CCF",
        "name": "Carcassonne Airport",
        "city": "Carcassonne/Salvaza",
        "state": "Occitanie",
        "country": "France",
        "elevation": 433,
        "lat": 43.2159996033,
        "lon": 2.306319952,
        "tz": "Europe/Paris"
    },
    "MRS": {
        "icao": "LFML",
        "iata": "MRS",
        "name": "Marseille Provence Airport",
        "city": "Marseille",
        "state": "Provence-Alpes-Cote-d'Azur",
        "country": "France",
        "elevation": 74,
        "lat": 43.439271922,
        "lon": 5.2214241028,
        "tz": "Europe/Paris"
    },
    "NCE": {
        "icao": "LFMN",
        "iata": "NCE",
        "name": "Nice-Cote d'Azur Airport",
        "city": "Nice",
        "state": "Provence-Alpes-Cote-d'Azur",
        "country": "France",
        "elevation": 12,
        "lat": 43.6584014893,
        "lon": 7.2158699036,
        "tz": "Europe/Paris"
    },
    "PGF": {
        "icao": "LFMP",
        "iata": "PGF",
        "name": "Perpignan-Rivesaltes (Llabanere) Airport",
        "city": "Perpignan/Rivesaltes",
        "state": "Occitanie",
        "country": "France",
        "elevation": 144,
        "lat": 42.740398407,
        "lon": 2.8706700802,
        "tz": "Europe/Paris"
    },
    "BZR": {
        "icao": "LFMU",
        "iata": "BZR",
        "name": "Beziers-Vias Airport",
        "city": "Beziers/Vias",
        "state": "Occitanie",
        "country": "France",
        "elevation": 56,
        "lat": 43.3235015869,
        "lon": 3.3538999557,
        "tz": "Europe/Paris"
    },
    "BVA": {
        "icao": "LFOB",
        "iata": "BVA",
        "name": "Paris Beauvais Tille Airport",
        "city": "Beauvais/Tille",
        "state": "Hauts-de-France",
        "country": "France",
        "elevation": 359,
        "lat": 49.4543991089,
        "lon": 2.1127800941,
        "tz": "Europe/Paris"
    },
    "XCR": {
        "icao": "LFOK",
        "iata": "XCR",
        "name": "Chalons-Vatry Air Base",
        "city": "Chalons/Vatry",
        "state": "Grand-Est",
        "country": "France",
        "elevation": 587,
        "lat": 48.7761001587,
        "lon": 4.1844902039,
        "tz": "Europe/Paris"
    },
    "TUF": {
        "icao": "LFOT",
        "iata": "TUF",
        "name": "Tours-Val-de-Loire Airport",
        "city": "Tours/Val de Loire (Loire Valley)",
        "state": "Centre",
        "country": "France",
        "elevation": 357,
        "lat": 47.4322013855,
        "lon": 0.7276059985,
        "tz": "Europe/Paris"
    },
    "LIL": {
        "icao": "LFQQ",
        "iata": "LIL",
        "name": "Lille-Lesquin Airport",
        "city": "Lille/Lesquin",
        "state": "Hauts-de-France",
        "country": "France",
        "elevation": 157,
        "lat": 50.5619010925,
        "lon": 3.0894401073,
        "tz": "Europe/Paris"
    },
    "NTE": {
        "icao": "LFRS",
        "iata": "NTE",
        "name": "Nantes Atlantique Airport",
        "city": "Nantes",
        "state": "Pays-de-la-Loire",
        "country": "France",
        "elevation": 90,
        "lat": 47.1531982422,
        "lon": -1.610730052,
        "tz": "Europe/Paris"
    },
    "BSL": {
        "icao": "LFSB",
        "iata": "BSL",
        "name": "EuroAirport Basel-Mulhouse-Freiburg Airport",
        "city": "Bale/Mulhouse",
        "state": "Grand-Est",
        "country": "Switzerland",
        "elevation": 885,
        "lat": 47.5895996094,
        "lon": 7.5299100876,
        "tz": "Europe/Paris"
    },
    "SXB": {
        "icao": "LFST",
        "iata": "SXB",
        "name": "Strasbourg Airport",
        "city": "Strasbourg",
        "state": "Grand-Est",
        "country": "France",
        "elevation": 505,
        "lat": 48.5382995605,
        "lon": 7.6282300949,
        "tz": "Europe/Paris"
    },
    "FNI": {
        "icao": "LFTW",
        "iata": "FNI",
        "name": "Nimes-Arles-Camargue Airport",
        "city": "Nimes/Garons",
        "state": "Occitanie",
        "country": "France",
        "elevation": 309,
        "lat": 43.7574005127,
        "lon": 4.4163498878,
        "tz": "Europe/Paris"
    },
    "ATH": {
        "icao": "LGAV",
        "iata": "ATH",
        "name": "Eleftherios Venizelos International Airport",
        "city": "Athens",
        "state": "Attica",
        "country": "Greece",
        "elevation": 308,
        "lat": 37.9364013672,
        "lon": 23.9444999695,
        "tz": "Europe/Athens"
    },
    "HER": {
        "icao": "LGIR",
        "iata": "HER",
        "name": "Heraklion International Nikos Kazantzakis Airport",
        "city": "Heraklion",
        "state": "Crete",
        "country": "Greece",
        "elevation": 115,
        "lat": 35.3396987915,
        "lon": 25.1802997589,
        "tz": "Europe/Athens"
    },
    "EFL": {
        "icao": "LGKF",
        "iata": "EFL",
        "name": "Kefallinia Airport",
        "city": "Kefallinia Island",
        "state": "Ionian-Islands",
        "country": "Greece",
        "elevation": 59,
        "lat": 38.120098114,
        "lon": 20.5004997253,
        "tz": "Europe/Athens"
    },
    "KLX": {
        "icao": "LGKL",
        "iata": "KLX",
        "name": "Kalamata Airport",
        "city": "Kalamata",
        "state": "Peloponnese",
        "country": "Greece",
        "elevation": 26,
        "lat": 37.0682983398,
        "lon": 22.0254993439,
        "tz": "Europe/Athens"
    },
    "KGS": {
        "icao": "LGKO",
        "iata": "KGS",
        "name": "Kos Airport",
        "city": "Kos Island",
        "state": "South-Aegean",
        "country": "Greece",
        "elevation": 412,
        "lat": 36.7933006287,
        "lon": 27.0916996002,
        "tz": "Europe/Athens"
    },
    "CFU": {
        "icao": "LGKR",
        "iata": "CFU",
        "name": "Ioannis Kapodistrias International Airport",
        "city": "Kerkyra Island",
        "state": "Ionian-Islands",
        "country": "Greece",
        "elevation": 6,
        "lat": 39.6018981934,
        "lon": 19.911699295,
        "tz": "Europe/Athens"
    },
    "JMK": {
        "icao": "LGMK",
        "iata": "JMK",
        "name": "Mikonos Airport",
        "city": "Mykonos Island",
        "state": "South-Aegean",
        "country": "Greece",
        "elevation": 405,
        "lat": 37.4351005554,
        "lon": 25.3481006622,
        "tz": "Europe/Athens"
    },
    "PVK": {
        "icao": "LGPZ",
        "iata": "PVK",
        "name": "Aktion National Airport",
        "city": "Preveza/Lefkada",
        "state": "West-Greece",
        "country": "Greece",
        "elevation": 11,
        "lat": 38.9254989624,
        "lon": 20.7653007507,
        "tz": "Europe/Athens"
    },
    "RHO": {
        "icao": "LGRP",
        "iata": "RHO",
        "name": "Diagoras Airport",
        "city": "Rodes Island",
        "state": "South-Aegean",
        "country": "Greece",
        "elevation": 17,
        "lat": 36.4053993225,
        "lon": 28.0862007141,
        "tz": "Europe/Athens"
    },
    "CHQ": {
        "icao": "LGSA",
        "iata": "CHQ",
        "name": "Chania International Airport",
        "city": "Souda",
        "state": "Crete",
        "country": "Greece",
        "elevation": 490,
        "lat": 35.5317001343,
        "lon": 24.1497001648,
        "tz": "Europe/Athens"
    },
    "JSI": {
        "icao": "LGSK",
        "iata": "JSI",
        "name": "Skiathos Island National Airport",
        "city": "Skiathos",
        "state": "Thessaly",
        "country": "Greece",
        "elevation": 54,
        "lat": 39.1771011353,
        "lon": 23.5037002563,
        "tz": "Europe/Athens"
    },
    "JTR": {
        "icao": "LGSR",
        "iata": "JTR",
        "name": "Santorini Airport",
        "city": "Santorini Island",
        "state": "South-Aegean",
        "country": "Greece",
        "elevation": 127,
        "lat": 36.3992004395,
        "lon": 25.4792995453,
        "tz": "Europe/Athens"
    },
    "SKG": {
        "icao": "LGTS",
        "iata": "SKG",
        "name": "Thessaloniki Macedonia International Airport",
        "city": "Thessaloniki",
        "state": "Central-Macedonia",
        "country": "Greece",
        "elevation": 22,
        "lat": 40.5196990967,
        "lon": 22.9708995819,
        "tz": "Europe/Athens"
    },
    "ZTH": {
        "icao": "LGZA",
        "iata": "ZTH",
        "name": "Dionysios Solomos Airport",
        "city": "Zakynthos Island",
        "state": "Ionian-Islands",
        "country": "Greece",
        "elevation": 15,
        "lat": 37.7509002686,
        "lon": 20.8843002319,
        "tz": "Europe/Athens"
    },
    "BUD": {
        "icao": "LHBP",
        "iata": "BUD",
        "name": "Budapest Ferenc Liszt International Airport",
        "city": "Budapest",
        "state": "Budapest",
        "country": "Hungary",
        "elevation": 495,
        "lat": 47.4369010925,
        "lon": 19.2555999756,
        "tz": "Europe/Budapest"
    },
    "CRV": {
        "icao": "LIBC",
        "iata": "CRV",
        "name": "Crotone Airport",
        "city": "Crotone",
        "state": "Calabria",
        "country": "Italy",
        "elevation": 522,
        "lat": 38.9972000122,
        "lon": 17.0802001953,
        "tz": "Europe/Rome"
    },
    "BRI": {
        "icao": "LIBD",
        "iata": "BRI",
        "name": "Bari / Palese International Airport",
        "city": "Bari",
        "state": "Apulia",
        "country": "Italy",
        "elevation": 177,
        "lat": 41.1389007568,
        "lon": 16.7605991364,
        "tz": "Europe/Rome"
    },
    "PSR": {
        "icao": "LIBP",
        "iata": "PSR",
        "name": "Pescara International Airport",
        "city": "Pescara",
        "state": "Abruzzo",
        "country": "Italy",
        "elevation": 48,
        "lat": 42.4317016602,
        "lon": 14.1810998917,
        "tz": "Europe/Rome"
    },
    "BDS": {
        "icao": "LIBR",
        "iata": "BDS",
        "name": "Brindisi / Casale Airport",
        "city": "Brindisi",
        "state": "Apulia",
        "country": "Italy",
        "elevation": 47,
        "lat": 40.6576004028,
        "lon": 17.9470005035,
        "tz": "Europe/Rome"
    },
    "SUF": {
        "icao": "LICA",
        "iata": "SUF",
        "name": "Lamezia Terme Airport",
        "city": "Lamezia Terme",
        "state": "Calabria",
        "country": "Italy",
        "elevation": 39,
        "lat": 38.9053993225,
        "lon": 16.2423000336,
        "tz": "Europe/Rome"
    },
    "CIY": {
        "icao": "LICB",
        "iata": "CIY",
        "name": "Comiso Airport Vincenzo Magliocco",
        "city": "Comiso",
        "state": "Sicily",
        "country": "Italy",
        "elevation": 623,
        "lat": 36.9946010208,
        "lon": 14.6071815491,
        "tz": "Europe/Rome"
    },
    "CTA": {
        "icao": "LICC",
        "iata": "CTA",
        "name": "Catania / Fontanarossa Airport",
        "city": "Catania",
        "state": "Sicily",
        "country": "Italy",
        "elevation": 39,
        "lat": 37.4668006897,
        "lon": 15.0663995743,
        "tz": "Europe/Rome"
    },
    "PMO": {
        "icao": "LICJ",
        "iata": "PMO",
        "name": "Palermo / Punta Raisi Airport",
        "city": "Palermo",
        "state": "Sicily",
        "country": "Italy",
        "elevation": 65,
        "lat": 38.1759986877,
        "lon": 13.0909996033,
        "tz": "Europe/Rome"
    },
    "TPS": {
        "icao": "LICT",
        "iata": "TPS",
        "name": "Trapani / Birgi Airport",
        "city": "Trapani",
        "state": "Sicily",
        "country": "Italy",
        "elevation": 25,
        "lat": 37.9113998413,
        "lon": 12.4879999161,
        "tz": "Europe/Rome"
    },
    "AHO": {
        "icao": "LIEA",
        "iata": "AHO",
        "name": "Alghero / Fertilia Airport",
        "city": "Alghero",
        "state": "Sardinia",
        "country": "Italy",
        "elevation": 87,
        "lat": 40.6320991516,
        "lon": 8.290769577,
        "tz": "Europe/Rome"
    },
    "CAG": {
        "icao": "LIEE",
        "iata": "CAG",
        "name": "Cagliari / Elmas Airport",
        "city": "Cagliari",
        "state": "Sardinia",
        "country": "Italy",
        "elevation": 13,
        "lat": 39.251499176,
        "lon": 9.0542802811,
        "tz": "Europe/Rome"
    },
    "MXP": {
        "icao": "LIMC",
        "iata": "MXP",
        "name": "Malpensa International Airport",
        "city": "Milan",
        "state": "Lombardy",
        "country": "Italy",
        "elevation": 768,
        "lat": 45.6305999756,
        "lon": 8.7281103134,
        "tz": "Europe/Rome"
    },
    "BGY": {
        "icao": "LIME",
        "iata": "BGY",
        "name": "Bergamo / Orio Al Serio Airport",
        "city": "Bergamo",
        "state": "Lombardy",
        "country": "Italy",
        "elevation": 782,
        "lat": 45.6739006042,
        "lon": 9.7041702271,
        "tz": "Europe/Rome"
    },
    "TRN": {
        "icao": "LIMF",
        "iata": "TRN",
        "name": "Torino / Caselle International Airport",
        "city": "Torino",
        "state": "Piedmont",
        "country": "Italy",
        "elevation": 989,
        "lat": 45.2008018494,
        "lon": 7.6496300697,
        "tz": "Europe/Rome"
    },
    "GOA": {
        "icao": "LIMJ",
        "iata": "GOA",
        "name": "Genova / Sestri Cristoforo Colombo Airport",
        "city": "Genova",
        "state": "Liguria",
        "country": "Italy",
        "elevation": 13,
        "lat": 44.4132995605,
        "lon": 8.8374996185,
        "tz": "Europe/Rome"
    },
    "PMF": {
        "icao": "LIMP",
        "iata": "PMF",
        "name": "Parma Airport",
        "city": "Parma",
        "state": "Emilia-Romagna",
        "country": "Italy",
        "elevation": 161,
        "lat": 44.8245010376,
        "lon": 10.2964000702,
        "tz": "Europe/Rome"
    },
    "CUF": {
        "icao": "LIMZ",
        "iata": "CUF",
        "name": "Cuneo / Levaldigi Airport",
        "city": "Cuneo",
        "state": "Piedmont",
        "country": "Italy",
        "elevation": 1267,
        "lat": 44.547000885,
        "lon": 7.6232199669,
        "tz": "Europe/Rome"
    },
    "BLQ": {
        "icao": "LIPE",
        "iata": "BLQ",
        "name": "Bologna / Borgo Panigale Airport",
        "city": "Bologna",
        "state": "Emilia-Romagna",
        "country": "Italy",
        "elevation": 123,
        "lat": 44.5354003906,
        "lon": 11.2887001038,
        "tz": "Europe/Rome"
    },
    "TSF": {
        "icao": "LIPH",
        "iata": "TSF",
        "name": "Treviso / Sant'Angelo Airport",
        "city": "Treviso",
        "state": "Veneto",
        "country": "Italy",
        "elevation": 59,
        "lat": 45.648399353,
        "lon": 12.1943998337,
        "tz": "Europe/Rome"
    },
    "FRL": {
        "icao": "LIPK",
        "iata": "FRL",
        "name": "Forli Airport",
        "city": "Forli",
        "state": "Emilia-Romagna",
        "country": "Italy",
        "elevation": 97,
        "lat": 44.1948013306,
        "lon": 12.0700998306,
        "tz": "Europe/Rome"
    },
    "TRS": {
        "icao": "LIPQ",
        "iata": "TRS",
        "name": "Trieste / Ronchi Dei Legionari",
        "city": "Trieste",
        "state": "Friuli-Venezia-Giulia",
        "country": "Italy",
        "elevation": 39,
        "lat": 45.8274993896,
        "lon": 13.4722003937,
        "tz": "Europe/Rome"
    },
    "RMI": {
        "icao": "LIPR",
        "iata": "RMI",
        "name": "Rimini / Miramare - Federico Fellini International Airport",
        "city": "Rimini",
        "state": "Emilia-Romagna",
        "country": "Italy",
        "elevation": 40,
        "lat": 44.0203018188,
        "lon": 12.611700058,
        "tz": "Europe/Rome"
    },
    "VRN": {
        "icao": "LIPX",
        "iata": "VRN",
        "name": "Verona / Villafranca Airport",
        "city": "Verona",
        "state": "Veneto",
        "country": "Italy",
        "elevation": 239,
        "lat": 45.3956985474,
        "lon": 10.8885002136,
        "tz": "Europe/Rome"
    },
    "AOI": {
        "icao": "LIPY",
        "iata": "AOI",
        "name": "Ancona / Falconara Airport",
        "city": "Ancona",
        "state": "The-Marches",
        "country": "Italy",
        "elevation": 49,
        "lat": 43.6162986755,
        "lon": 13.3622999191,
        "tz": "Europe/Rome"
    },
    "VCE": {
        "icao": "LIPZ",
        "iata": "VCE",
        "name": "Venezia / Tessera -  Marco Polo Airport",
        "city": "Venezia",
        "state": "Veneto",
        "country": "Italy",
        "elevation": 7,
        "lat": 45.5052986145,
        "lon": 12.3519001007,
        "tz": "Europe/Rome"
    },
    "CIA": {
        "icao": "LIRA",
        "iata": "CIA",
        "name": "Ciampino Airport",
        "city": "Roma",
        "state": "Latium",
        "country": "Italy",
        "elevation": 427,
        "lat": 41.7994003296,
        "lon": 12.5949001312,
        "tz": "Europe/Rome"
    },
    "FCO": {
        "icao": "LIRF",
        "iata": "FCO",
        "name": "Leonardo Da Vinci (Fiumicino) International Airport",
        "city": "Rome",
        "state": "Latium",
        "country": "Italy",
        "elevation": 15,
        "lat": 41.8045005798,
        "lon": 12.2508001328,
        "tz": "Europe/Rome"
    },
    "NAP": {
        "icao": "LIRN",
        "iata": "NAP",
        "name": "Napoli / Capodichino International Airport",
        "city": "Napoli",
        "state": "Campania",
        "country": "Italy",
        "elevation": 294,
        "lat": 40.8860015869,
        "lon": 14.2908000946,
        "tz": "Europe/Rome"
    },
    "PSA": {
        "icao": "LIRP",
        "iata": "PSA",
        "name": "Pisa / San Giusto - Galileo Galilei International Airport",
        "city": "Pisa",
        "state": "Tuscany",
        "country": "Italy",
        "elevation": 6,
        "lat": 43.6838989258,
        "lon": 10.3927001953,
        "tz": "Europe/Rome"
    },
    "PEG": {
        "icao": "LIRZ",
        "iata": "PEG",
        "name": "Perugia / San Egidio Airport",
        "city": "Perugia",
        "state": "Umbria",
        "country": "Italy",
        "elevation": 697,
        "lat": 43.0959014893,
        "lon": 12.5131998062,
        "tz": "Europe/Rome"
    },
    "OSR": {
        "icao": "LKMT",
        "iata": "OSR",
        "name": "Ostrava Leos Janacek Airport",
        "city": "Ostrava",
        "state": "Moravskoslezsky",
        "country": "Czech Republic",
        "elevation": 844,
        "lat": 49.6963005066,
        "lon": 18.1110992432,
        "tz": "Europe/Prague"
    },
    "PED": {
        "icao": "LKPD",
        "iata": "PED",
        "name": "Pardubice Airport",
        "city": "Pardubice",
        "state": "Pardubicky",
        "country": "Czech Republic",
        "elevation": 741,
        "lat": 50.0134010315,
        "lon": 15.7385997772,
        "tz": "Europe/Prague"
    },
    "PRG": {
        "icao": "LKPR",
        "iata": "PRG",
        "name": "Vaclav Havel Airport",
        "city": "Prague",
        "state": "Praha",
        "country": "Czech Republic",
        "elevation": 1247,
        "lat": 50.1007995605,
        "lon": 14.2600002289,
        "tz": "Europe/Prague"
    },
    "BRQ": {
        "icao": "LKTB",
        "iata": "BRQ",
        "name": "Brno-Turany Airport",
        "city": "Brno",
        "state": "South-Moravian",
        "country": "Czech Republic",
        "elevation": 778,
        "lat": 49.1512985229,
        "lon": 16.6944007874,
        "tz": "Europe/Prague"
    },
    "TLV": {
        "icao": "LLBG",
        "iata": "TLV",
        "name": "Ben Gurion International Airport",
        "city": "Tel Aviv",
        "state": "Central-District",
        "country": "Israel",
        "elevation": 135,
        "lat": 32.0113983154,
        "lon": 34.8866996765,
        "tz": "Asia/Jerusalem"
    },
    "ETM": {
        "icao": "LLER",
        "iata": "ETM",
        "name": "Ramon Airport",
        "city": "Eilat",
        "state": "Southern-District",
        "country": "Israel",
        "elevation": 288,
        "lat": 29.723694,
        "lon": 35.011417,
        "tz": "Asia/Jerusalem"
    },
    "MLA": {
        "icao": "LMML",
        "iata": "MLA",
        "name": "Luqa Airport",
        "city": "Luqa",
        "state": "Luqa",
        "country": "Malta",
        "elevation": 300,
        "lat": 35.857498,
        "lon": 14.4775,
        "tz": "Europe/Malta"
    },
    "KLU": {
        "icao": "LOWK",
        "iata": "KLU",
        "name": "Klagenfurt Airport",
        "city": "Klagenfurt am Worthersee",
        "state": "Carinthia",
        "country": "Austria",
        "elevation": 1470,
        "lat": 46.6425018311,
        "lon": 14.3376998901,
        "tz": "Europe/Vienna"
    },
    "SZG": {
        "icao": "LOWS",
        "iata": "SZG",
        "name": "Salzburg Airport",
        "city": "Salzburg",
        "state": "Salzburg",
        "country": "Austria",
        "elevation": 1411,
        "lat": 47.7933006287,
        "lon": 13.0043001175,
        "tz": "Europe/Berlin"
    },
    "VIE": {
        "icao": "LOWW",
        "iata": "VIE",
        "name": "Vienna International Airport",
        "city": "Vienna",
        "state": "Lower-Austria",
        "country": "Austria",
        "elevation": 600,
        "lat": 48.1102981567,
        "lon": 16.5697002411,
        "tz": "Europe/Vienna"
    },
    "FAO": {
        "icao": "LPFR",
        "iata": "FAO",
        "name": "Faro Airport",
        "city": "Faro",
        "state": "Faro",
        "country": "Portugal",
        "elevation": 24,
        "lat": 37.0144004822,
        "lon": -7.9659099579,
        "tz": "Europe/Lisbon"
    },
    "TER": {
        "icao": "LPLA",
        "iata": "TER",
        "name": "Lajes Field",
        "city": "Lajes",
        "state": "Azores",
        "country": "Portugal",
        "elevation": 180,
        "lat": 38.7617988586,
        "lon": -27.0907993317,
        "tz": "Atlantic/Azores"
    },
    "FNC": {
        "icao": "LPMA",
        "iata": "FNC",
        "name": "Madeira Airport",
        "city": "Funchal",
        "state": "Madeira",
        "country": "Portugal",
        "elevation": 192,
        "lat": 32.6978988647,
        "lon": -16.7744998932,
        "tz": "Atlantic/Madeira"
    },
    "PDL": {
        "icao": "LPPD",
        "iata": "PDL",
        "name": "Joao Paulo II Airport",
        "city": "Ponta Delgada",
        "state": "Azores",
        "country": "Portugal",
        "elevation": 259,
        "lat": 37.7411994934,
        "lon": -25.6979007721,
        "tz": "Atlantic/Azores"
    },
    "OPO": {
        "icao": "LPPR",
        "iata": "OPO",
        "name": "Francisco de Sa Carneiro Airport",
        "city": "Porto",
        "state": "Porto",
        "country": "Portugal",
        "elevation": 228,
        "lat": 41.2481002808,
        "lon": -8.6813898087,
        "tz": "Europe/Lisbon"
    },
    "PXO": {
        "icao": "LPPS",
        "iata": "PXO",
        "name": "Porto Santo Airport",
        "city": "Vila Baleira",
        "state": "Madeira",
        "country": "Portugal",
        "elevation": 341,
        "lat": 33.0733985901,
        "lon": -16.3500003815,
        "tz": "Atlantic/Madeira"
    },
    "LIS": {
        "icao": "LPPT",
        "iata": "LIS",
        "name": "Lisbon Portela Airport",
        "city": "Lisbon",
        "state": "Lisbon",
        "country": "Portugal",
        "elevation": 374,
        "lat": 38.7812995911,
        "lon": -9.1359195709,
        "tz": "Europe/Lisbon"
    },
    "BNX": {
        "icao": "LQBK",
        "iata": "BNX",
        "name": "Banja Luka International Airport",
        "city": "Banja Luka",
        "state": "Srspka",
        "country": "Bosnia and Herzegovina",
        "elevation": 400,
        "lat": 44.9413986206,
        "lon": 17.2975006104,
        "tz": "Europe/Sarajevo"
    },
    "TZL": {
        "icao": "LQTZ",
        "iata": "TZL",
        "name": "Tuzla International Airport",
        "city": "Tuzla",
        "state": "Federation-of-B&H",
        "country": "Bosnia and Herzegovina",
        "elevation": 784,
        "lat": 44.4586982727,
        "lon": 18.7248001099,
        "tz": "Europe/Sarajevo"
    },
    "CLJ": {
        "icao": "LRCL",
        "iata": "CLJ",
        "name": "Cluj-Napoca International Airport",
        "city": "Cluj-Napoca",
        "state": "Cluj",
        "country": "Romania",
        "elevation": 1036,
        "lat": 46.7851982117,
        "lon": 23.6861991882,
        "tz": "Europe/Bucharest"
    },
    "IAS": {
        "icao": "LRIA",
        "iata": "IAS",
        "name": "Iasi Airport",
        "city": "Iasi",
        "state": "Ia\u015fi",
        "country": "Romania",
        "elevation": 397,
        "lat": 47.1785011292,
        "lon": 27.6205997467,
        "tz": "Europe/Bucharest"
    },
    "OMR": {
        "icao": "LROD",
        "iata": "OMR",
        "name": "Oradea International Airport",
        "city": "Oradea",
        "state": "Bihor",
        "country": "Romania",
        "elevation": 465,
        "lat": 47.0252990723,
        "lon": 21.9025001526,
        "tz": "Europe/Bucharest"
    },
    "OTP": {
        "icao": "LROP",
        "iata": "OTP",
        "name": "Henri Coanda International Airport",
        "city": "Bucharest",
        "state": "Ilfov",
        "country": "Romania",
        "elevation": 314,
        "lat": 44.5722007751,
        "lon": 26.1021995544,
        "tz": "Europe/Bucharest"
    },
    "SBZ": {
        "icao": "LRSB",
        "iata": "SBZ",
        "name": "Sibiu International Airport",
        "city": "Sibiu",
        "state": "Sibiu",
        "country": "Romania",
        "elevation": 1496,
        "lat": 45.7855987549,
        "lon": 24.091299057,
        "tz": "Europe/Bucharest"
    },
    "SCV": {
        "icao": "LRSV",
        "iata": "SCV",
        "name": "Suceava Stefan cel Mare Airport",
        "city": "Suceava",
        "state": "Suceava",
        "country": "Romania",
        "elevation": 1375,
        "lat": 47.6875,
        "lon": 26.3540992737,
        "tz": "Europe/Bucharest"
    },
    "TSR": {
        "icao": "LRTR",
        "iata": "TSR",
        "name": "Timisoara Traian Vuia Airport",
        "city": "Timisoara",
        "state": "Timi\u015f",
        "country": "Romania",
        "elevation": 348,
        "lat": 45.8098983765,
        "lon": 21.3379001617,
        "tz": "Europe/Bucharest"
    },
    "DLM": {
        "icao": "LTBS",
        "iata": "DLM",
        "name": "Dalaman International Airport",
        "city": "Dalaman",
        "state": "Mugla",
        "country": "Turkey",
        "elevation": 20,
        "lat": 36.7131004333,
        "lon": 28.7924995422,
        "tz": "Europe/Istanbul"
    },
    "BJV": {
        "icao": "LTFE",
        "iata": "BJV",
        "name": "Milas Bodrum International Airport",
        "city": "Bodrum",
        "state": "Mugla",
        "country": "Turkey",
        "elevation": 21,
        "lat": 37.2505989075,
        "lon": 27.6643009186,
        "tz": "Europe/Istanbul"
    },
    "INI": {
        "icao": "LYNI",
        "iata": "INI",
        "name": "Nis Airport",
        "city": "Nis",
        "state": "Central-Serbia",
        "country": "Serbia",
        "elevation": 648,
        "lat": 43.337299,
        "lon": 21.853701,
        "tz": "Europe/Belgrade"
    },
    "TGD": {
        "icao": "LYPG",
        "iata": "TGD",
        "name": "Podgorica Airport",
        "city": "Podgorica",
        "state": "Podgorica",
        "country": "Montenegro",
        "elevation": 141,
        "lat": 42.3594017029,
        "lon": 19.2518997192,
        "tz": "Europe/Podgorica"
    },
    "BTS": {
        "icao": "LZIB",
        "iata": "BTS",
        "name": "M. R. Stefanik Airport",
        "city": "Bratislava",
        "state": "Bratislavsky",
        "country": "Slovakia",
        "elevation": 436,
        "lat": 48.1702003479,
        "lon": 17.2126998901,
        "tz": "Europe/Bratislava"
    },
    "KSC": {
        "icao": "LZKZ",
        "iata": "KSC",
        "name": "Kosice Airport",
        "city": "Kosice",
        "state": "Kosicky",
        "country": "Slovakia",
        "elevation": 755,
        "lat": 48.6631011963,
        "lon": 21.2411003113,
        "tz": "Europe/Bratislava"
    },
    "AMM": {
        "icao": "OJAI",
        "iata": "AMM",
        "name": "Queen Alia International Airport",
        "city": "Amman",
        "state": "Amman",
        "country": "Jordan",
        "elevation": 2395,
        "lat": 31.7226009369,
        "lon": 35.9931983948,
        "tz": "Asia/Amman"
    },
    "AQJ": {
        "icao": "OJAQ",
        "iata": "AQJ",
        "name": "Aqaba King Hussein International Airport",
        "city": "Aqaba",
        "state": "Aqaba",
        "country": "Jordan",
        "elevation": 175,
        "lat": 29.6116008759,
        "lon": 35.0181007385,
        "tz": "Asia/Amman"
    },
    "KBP": {
        "icao": "UKBB",
        "iata": "KBP",
        "name": "Boryspil International Airport",
        "city": "Kiev",
        "state": "Kyiv",
        "country": "Ukraine",
        "elevation": 427,
        "lat": 50.3450012207,
        "lon": 30.8946990967,
        "tz": "Europe/Kiev"
    }
}